[
    {
        "domain": "http://auburn.craigslist.org",
        "city": "auburn",
        "state": "Alabama",
        "date": "Sep  5",
        "title": "1968 VW Beetle",
        "location": " (Auburn, Ala)",
        "picture": " pic",
        "map": ""
    },
    {
        "domain": "http://auburn.craigslist.org",
        "city": "auburn",
        "state": "Alabama",
        "date": "Sep  4",
        "title": "1963 Volkswagen Beetle VW Bug",
        "location": " (Valley Ala)",
        "picture": " pic ",
        "map": "map"
    },
    {
        "domain": "http://auburn.craigslist.org",
        "city": "auburn",
        "state": "Alabama",
        "date": "Sep 11",
        "title": "1973 volkswagen super beetle / trader",
        "location": " (doraville ga)",
        "picture": " pic ",
        "map": "map"
    },
    {
        "domain": "http://auburn.craigslist.org",
        "city": "auburn",
        "state": "Alabama",
        "date": "Sep 11",
        "title": "1966 VW BUG- Sweet!- Daily Driver- Runs great!",
        "location": " (DOUGLASVILLE)",
        "picture": " pic",
        "map": ""
    },
    {
        "domain": "http://auburn.craigslist.org",
        "city": "auburn",
        "state": "Alabama",
        "date": "Sep 10",
        "title": "74 super beetle. have a look!",
        "location": " (Cumming/Alpharetta)",
        "picture": " pic ",
        "map": "map"
    },
    {
        "domain": "http://auburn.craigslist.org",
        "city": "auburn",
        "state": "Alabama",
        "date": "Sep 10",
        "title": "1973 VW Super Beetle/Bug",
        "location": " (Monroe)",
        "picture": " pic ",
        "map": "map"
    },
    {
        "domain": "http://auburn.craigslist.org",
        "city": "auburn",
        "state": "Alabama",
        "date": "Sep 10",
        "title": "74 standard vw",
        "location": " (carrollton)",
        "picture": " ",
        "map": ""
    },
    {
        "domain": "http://auburn.craigslist.org",
        "city": "auburn",
        "state": "Alabama",
        "date": "Sep 10",
        "title": "71 Volkswagen Beetle (Chattanooga)",
        "location": "",
        "picture": " pic",
        "map": ""
    },
    {
        "domain": "http://auburn.craigslist.org",
        "city": "auburn",
        "state": "Alabama",
        "date": "Sep 10",
        "title": "1973 volkswagen super beetle / trader",
        "location": " (doraville ga)",
        "picture": " pic ",
        "map": "map"
    },
    {
        "domain": "http://auburn.craigslist.org",
        "city": "auburn",
        "state": "Alabama",
        "date": "Sep 10",
        "title": "1973 Volkswagen Super Beetle",
        "location": " (Lilburn/Mountain Park)",
        "picture": " pic",
        "map": ""
    },
    {
        "domain": "http://auburn.craigslist.org",
        "city": "auburn",
        "state": "Alabama",
        "date": "Sep 10",
        "title": "1978 Volkswagon Beetle Convertible",
        "location": " (Gadsden,Al)",
        "picture": " pic",
        "map": ""
    },
    {
        "domain": "http://auburn.craigslist.org",
        "city": "auburn",
        "state": "Alabama",
        "date": "Sep 10",
        "title": "1972 Convertible Super Beetle",
        "location": " (Ellijay GA)",
        "picture": " pic",
        "map": ""
    },
    {
        "domain": "http://auburn.craigslist.org",
        "city": "auburn",
        "state": "Alabama",
        "date": "Sep 10",
        "title": "Classic Volkswagen beetle 1969 single port 20\" rims",
        "location": " (Jackson)",
        "picture": " pic",
        "map": ""
    },
    {
        "domain": "http://auburn.craigslist.org",
        "city": "auburn",
        "state": "Alabama",
        "date": "Sep 10",
        "title": "1971 Super Beetle",
        "location": " (flowery branch)",
        "picture": " pic",
        "map": ""
    },
    {
        "domain": "http://auburn.craigslist.org",
        "city": "auburn",
        "state": "Alabama",
        "date": "Sep 10",
        "title": "1973 Volkswagen Bug On air bags",
        "location": " (Huntsville Alabama)",
        "picture": " pic",
        "map": ""
    },
    {
        "domain": "http://auburn.craigslist.org",
        "city": "auburn",
        "state": "Alabama",
        "date": "Sep  9",
        "title": "1974 Volkswagen VW Beetle Bug Great Shape",
        "location": " (Trussville)",
        "picture": " pic",
        "map": ""
    },
    {
        "domain": "http://auburn.craigslist.org",
        "city": "auburn",
        "state": "Alabama",
        "date": "Sep  9",
        "title": "1974 VW Super Beetle",
        "location": " (Clanton)",
        "picture": " pic",
        "map": ""
    },
    {
        "domain": "http://auburn.craigslist.org",
        "city": "auburn",
        "state": "Alabama",
        "date": "Sep  9",
        "title": "1974 VW Super Beetle",
        "location": " (Clanton)",
        "picture": " pic ",
        "map": "map"
    },
    {
        "domain": "http://auburn.craigslist.org",
        "city": "auburn",
        "state": "Alabama",
        "date": "Sep  9",
        "title": "1973 Volkswagen Beetle",
        "location": " (Monroe)",
        "picture": " pic",
        "map": ""
    },
    {
        "domain": "http://auburn.craigslist.org",
        "city": "auburn",
        "state": "Alabama",
        "date": "Sep  9",
        "title": "1970 vw beetle",
        "location": " (Canton, GA)",
        "picture": " pic",
        "map": ""
    },
    {
        "domain": "http://auburn.craigslist.org",
        "city": "auburn",
        "state": "Alabama",
        "date": "Sep  9",
        "title": "CLEAN 1974 VW BEETLE FOR SALE",
        "location": " (ELLENWOOD,GA)",
        "picture": " pic ",
        "map": "map"
    },
    {
        "domain": "http://auburn.craigslist.org",
        "city": "auburn",
        "state": "Alabama",
        "date": "Sep  9",
        "title": "1971 VW BEETLE",
        "location": "",
        "picture": " pic ",
        "map": "map"
    },
    {
        "domain": "http://auburn.craigslist.org",
        "city": "auburn",
        "state": "Alabama",
        "date": "Sep  9",
        "title": "Volkswagen VW super beetle convertible white weber carb with 009 dist ",
        "location": " (Woodstock)",
        "picture": " pic ",
        "map": "map"
    },
    {
        "domain": "http://auburn.craigslist.org",
        "city": "auburn",
        "state": "Alabama",
        "date": "Sep  9",
        "title": "1976 volkswagen beetle classic",
        "location": " (conyers)",
        "picture": " pic ",
        "map": "map"
    },
    {
        "domain": "http://auburn.craigslist.org",
        "city": "auburn",
        "state": "Alabama",
        "date": "Sep  8",
        "title": "1971 Volkswagen VW Beetle",
        "location": " (Gwinnett Co (Grayson))",
        "picture": " pic ",
        "map": "map"
    },
    {
        "domain": "http://auburn.craigslist.org",
        "city": "auburn",
        "state": "Alabama",
        "date": "Sep  8",
        "title": "1973 VW Super Beetle",
        "location": " (Leeds, al)",
        "picture": " pic ",
        "map": "map"
    },
    {
        "domain": "http://auburn.craigslist.org",
        "city": "auburn",
        "state": "Alabama",
        "date": "Sep  7",
        "title": "1974 volkswagen sun bug beetle",
        "location": "",
        "picture": " pic",
        "map": ""
    },
    {
        "domain": "http://auburn.craigslist.org",
        "city": "auburn",
        "state": "Alabama",
        "date": "Sep  7",
        "title": "1966 VW Beetle 1300 series",
        "location": "",
        "picture": " pic",
        "map": ""
    },
    {
        "domain": "http://auburn.craigslist.org",
        "city": "auburn",
        "state": "Alabama",
        "date": "Sep  7",
        "title": "1974 VW Beetle Excellent Condition",
        "location": " (Chattanooga)",
        "picture": " ",
        "map": ""
    },
    {
        "domain": "http://auburn.craigslist.org",
        "city": "auburn",
        "state": "Alabama",
        "date": "Sep  7",
        "title": "1974 VW Beetle Excellent Condition",
        "location": " (Chattanooga)",
        "picture": " pic",
        "map": ""
    },
    {
        "domain": "http://auburn.craigslist.org",
        "city": "auburn",
        "state": "Alabama",
        "date": "Sep  5",
        "title": "1967 vw 67 bug beetle",
        "location": " (anniston)",
        "picture": " pic ",
        "map": "map"
    },
    {
        "domain": "http://auburn.craigslist.org",
        "city": "auburn",
        "state": "Alabama",
        "date": "Sep  5",
        "title": "69 VW BEETLE One Sweet Ride!",
        "location": " (Bartow County)",
        "picture": " pic",
        "map": ""
    },
    {
        "domain": "http://auburn.craigslist.org",
        "city": "auburn",
        "state": "Alabama",
        "date": "Sep  5",
        "title": "'74 VW Beetle",
        "location": " (Alabaster)",
        "picture": " pic ",
        "map": "map"
    },
    {
        "domain": "http://auburn.craigslist.org",
        "city": "auburn",
        "state": "Alabama",
        "date": "Sep  5",
        "title": "1972 Super Beetle",
        "location": " (Clayton County)",
        "picture": " pic ",
        "map": "map"
    },
    {
        "domain": "http://auburn.craigslist.org",
        "city": "auburn",
        "state": "Alabama",
        "date": "Sep  4",
        "title": "VW SUPER BEETLE  PROJECT",
        "location": " (BLEECKER,AL)",
        "picture": " pic ",
        "map": "map"
    },
    {
        "domain": "http://auburn.craigslist.org",
        "city": "auburn",
        "state": "Alabama",
        "date": "Sep  4",
        "title": "VOLKSWAGEN BEETLE  1969 BUG",
        "location": " (forest park)",
        "picture": " pic ",
        "map": "map"
    },
    {
        "domain": "http://auburn.craigslist.org",
        "city": "auburn",
        "state": "Alabama",
        "date": "Sep  3",
        "title": "1970 VW Beetle Convertible",
        "location": " (Acworth)",
        "picture": " pic",
        "map": ""
    },
    {
        "domain": "http://auburn.craigslist.org",
        "city": "auburn",
        "state": "Alabama",
        "date": "Sep  3",
        "title": "1971 VW Beetle",
        "location": " (Cleveland, AL)",
        "picture": " pic",
        "map": ""
    },
    {
        "domain": "http://auburn.craigslist.org",
        "city": "auburn",
        "state": "Alabama",
        "date": "Sep  3",
        "title": "VW BEETLE",
        "location": "",
        "picture": " pic ",
        "map": "map"
    },
    {
        "domain": "http://auburn.craigslist.org",
        "city": "auburn",
        "state": "Alabama",
        "date": "Sep  2",
        "title": "1968 volkswagen beetle",
        "location": " (Dallas)",
        "picture": " pic",
        "map": ""
    },
    {
        "domain": "http://auburn.craigslist.org",
        "city": "auburn",
        "state": "Alabama",
        "date": "Sep  2",
        "title": "Vw Beetle bug 1965  bug ",
        "location": " (Gadsden)",
        "picture": " pic",
        "map": ""
    },
    {
        "domain": "http://auburn.craigslist.org",
        "city": "auburn",
        "state": "Alabama",
        "date": "Sep  2",
        "title": "1957 VW Beetle",
        "location": " (Dallas)",
        "picture": " pic",
        "map": ""
    },
    {
        "domain": "http://auburn.craigslist.org",
        "city": "auburn",
        "state": "Alabama",
        "date": "Sep  2",
        "title": "1967 Volkswagen Beetle",
        "location": " (Buckhead)",
        "picture": " pic ",
        "map": "map"
    },
    {
        "domain": "http://auburn.craigslist.org",
        "city": "auburn",
        "state": "Alabama",
        "date": "Sep  1",
        "title": "1974 Volkswagen Beetle",
        "location": " (Odenville,Al)",
        "picture": " pic",
        "map": ""
    },
    {
        "domain": "http://auburn.craigslist.org",
        "city": "auburn",
        "state": "Alabama",
        "date": "Sep  1",
        "title": "Beautiful 1974 Super Beetle. A Must See!",
        "location": " (Cumming/Alpharetta)",
        "picture": " pic ",
        "map": "map"
    },
    {
        "domain": "http://auburn.craigslist.org",
        "city": "auburn",
        "state": "Alabama",
        "date": "Aug 30",
        "title": "1974 super beetle. have a look!",
        "location": " (Cumming/Alpharetta)",
        "picture": " pic",
        "map": ""
    },
    {
        "domain": "http://auburn.craigslist.org",
        "city": "auburn",
        "state": "Alabama",
        "date": "Aug 30",
        "title": "1969 Volkswagen beetle or best offer",
        "location": " (Dacula)",
        "picture": " pic ",
        "map": "map"
    },
    {
        "domain": "http://auburn.craigslist.org",
        "city": "auburn",
        "state": "Alabama",
        "date": "Aug 30",
        "title": "1974 VW super beetle ",
        "location": " (Covington ga)",
        "picture": " ",
        "map": ""
    },
    {
        "domain": "http://auburn.craigslist.org",
        "city": "auburn",
        "state": "Alabama",
        "date": "Aug 30",
        "title": "1961 slammed patina volkswagen beetle",
        "location": " (canton)",
        "picture": " pic ",
        "map": "map"
    },
    {
        "domain": "http://auburn.craigslist.org",
        "city": "auburn",
        "state": "Alabama",
        "date": "Aug 29",
        "title": "1972 super beetle",
        "location": " (tallapoosa)",
        "picture": " pic",
        "map": ""
    },
    {
        "domain": "http://auburn.craigslist.org",
        "city": "auburn",
        "state": "Alabama",
        "date": "Aug 29",
        "title": "1969 Candy Apple Red  Volkswagon  Restored to original state. ",
        "location": " (swainsboro)",
        "picture": " pic ",
        "map": "map"
    },
    {
        "domain": "http://auburn.craigslist.org",
        "city": "auburn",
        "state": "Alabama",
        "date": "Aug 29",
        "title": "Customize 1973 Volkswagen Beetle",
        "location": "",
        "picture": " pic",
        "map": ""
    },
    {
        "domain": "http://auburn.craigslist.org",
        "city": "auburn",
        "state": "Alabama",
        "date": "Aug 28",
        "title": "63 Volkswagen Beetle Bug  Baja lifted",
        "location": " (Columbus Georgia)",
        "picture": " pic",
        "map": ""
    },
    {
        "domain": "http://auburn.craigslist.org",
        "city": "auburn",
        "state": "Alabama",
        "date": "Aug 27",
        "title": "1968 Volkswagen Beetle",
        "location": " (Stockbridge)",
        "picture": " pic",
        "map": ""
    },
    {
        "domain": "http://auburn.craigslist.org",
        "city": "auburn",
        "state": "Alabama",
        "date": "Aug 27",
        "title": "1972 VW Super Beetle",
        "location": " (Wetumpka)",
        "picture": " pic",
        "map": ""
    },
    {
        "domain": "http://auburn.craigslist.org",
        "city": "auburn",
        "state": "Alabama",
        "date": "Aug 27",
        "title": "'74 vw super beetle",
        "location": " (dallas, ga)",
        "picture": " pic ",
        "map": "map"
    },
    {
        "domain": "http://auburn.craigslist.org",
        "city": "auburn",
        "state": "Alabama",
        "date": "Aug 27",
        "title": "1972 VW Beetle",
        "location": " (Monroe,Ga)",
        "picture": " pic ",
        "map": "map"
    },
    {
        "domain": "http://auburn.craigslist.org",
        "city": "auburn",
        "state": "Alabama",
        "date": "Aug 26",
        "title": "1964 VW Beetle Rat Rod Natural Patina ",
        "location": " (Dalton)",
        "picture": " pic ",
        "map": "map"
    },
    {
        "domain": "http://auburn.craigslist.org",
        "city": "auburn",
        "state": "Alabama",
        "date": "Aug 26",
        "title": "Vw super beetle. 1970. Herbie the love bug",
        "location": " (Jefferson)",
        "picture": " pic ",
        "map": "map"
    },
    {
        "domain": "http://auburn.craigslist.org",
        "city": "auburn",
        "state": "Alabama",
        "date": "Aug 25",
        "title": "1974 super beetle ",
        "location": "",
        "picture": " ",
        "map": "map"
    },
    {
        "domain": "http://auburn.craigslist.org",
        "city": "auburn",
        "state": "Alabama",
        "date": "Aug 25",
        "title": "73 VW Superbeetle / Rolls wagen",
        "location": " (Dunwoody)",
        "picture": " pic ",
        "map": "map"
    },
    {
        "domain": "http://auburn.craigslist.org",
        "city": "auburn",
        "state": "Alabama",
        "date": "Aug 24",
        "title": "72 Beetle",
        "location": " (odenville)",
        "picture": " ",
        "map": ""
    },
    {
        "domain": "http://auburn.craigslist.org",
        "city": "auburn",
        "state": "Alabama",
        "date": "Aug 22",
        "title": "White VW Beetle 1968  ",
        "location": " (Flowery Branch)",
        "picture": " pic",
        "map": ""
    },
    {
        "domain": "http://auburn.craigslist.org",
        "city": "auburn",
        "state": "Alabama",
        "date": "Aug 22",
        "title": "trade my bike for your car",
        "location": " (buford)",
        "picture": " pic",
        "map": ""
    },
    {
        "domain": "http://auburn.craigslist.org",
        "city": "auburn",
        "state": "Alabama",
        "date": "Aug 21",
        "title": "vw baja",
        "location": " (Woodstock )",
        "picture": " pic",
        "map": ""
    },
    {
        "domain": "http://auburn.craigslist.org",
        "city": "auburn",
        "state": "Alabama",
        "date": "Aug 20",
        "title": "1972 vw super beetle",
        "location": " (boaz)",
        "picture": " pic",
        "map": ""
    },
    {
        "domain": "http://auburn.craigslist.org",
        "city": "auburn",
        "state": "Alabama",
        "date": "Aug 20",
        "title": "1972 vw super beetle",
        "location": " (boaz)",
        "picture": " pic",
        "map": ""
    },
    {
        "domain": "http://auburn.craigslist.org",
        "city": "auburn",
        "state": "Alabama",
        "date": "Aug 20",
        "title": "1969 Volkswagen Beetle Convertible ",
        "location": " (Marietta)",
        "picture": " pic",
        "map": ""
    },
    {
        "domain": "http://auburn.craigslist.org",
        "city": "auburn",
        "state": "Alabama",
        "date": "Aug 19",
        "title": "1974 VW Beetle",
        "location": " (Hampton)",
        "picture": " pic ",
        "map": "map"
    },
    {
        "domain": "http://auburn.craigslist.org",
        "city": "auburn",
        "state": "Alabama",
        "date": "Aug 19",
        "title": "1970 VW BEETLE FOR SALE OR TRADE ",
        "location": " (birmingham)",
        "picture": " pic",
        "map": ""
    },
    {
        "domain": "http://auburn.craigslist.org",
        "city": "auburn",
        "state": "Alabama",
        "date": "Aug 19",
        "title": "1972 VW Super Beetle For Sale",
        "location": " (Atlanta, GA)",
        "picture": " pic",
        "map": ""
    },
    {
        "domain": "http://auburn.craigslist.org",
        "city": "auburn",
        "state": "Alabama",
        "date": "Aug 18",
        "title": "VW BUG / BEETLE",
        "location": " (McCALLA)",
        "picture": " pic",
        "map": ""
    },
    {
        "domain": "http://auburn.craigslist.org",
        "city": "auburn",
        "state": "Alabama",
        "date": "Aug 18",
        "title": "1969 VW baja beetle",
        "location": " (McDonough)",
        "picture": " pic ",
        "map": "map"
    },
    {
        "domain": "http://auburn.craigslist.org",
        "city": "auburn",
        "state": "Alabama",
        "date": "Aug 17",
        "title": "Classic 1965 Volkswagen, VW Beetle, Bug...Restored",
        "location": " (Loganville)",
        "picture": " pic ",
        "map": "map"
    },
    {
        "domain": "http://auburn.craigslist.org",
        "city": "auburn",
        "state": "Alabama",
        "date": "Aug 17",
        "title": "1977 VW BEETLE",
        "location": " (MOODY)",
        "picture": " ",
        "map": "map"
    },
    {
        "domain": "http://auburn.craigslist.org",
        "city": "auburn",
        "state": "Alabama",
        "date": "Aug 16",
        "title": "1973super beetle",
        "location": " (buchanan)",
        "picture": " ",
        "map": ""
    },
    {
        "domain": "http://auburn.craigslist.org",
        "city": "auburn",
        "state": "Alabama",
        "date": "Aug 16",
        "title": "72 VW BEETLE",
        "location": " (dublin ga)",
        "picture": " pic ",
        "map": "map"
    },
    {
        "domain": "http://auburn.craigslist.org",
        "city": "auburn",
        "state": "Alabama",
        "date": "Aug 15",
        "title": "1972 Volkswagen beetle, Bug for sale. I bought it with less than 100 m",
        "location": " (Cabbagetown/O4W)",
        "picture": " pic ",
        "map": "map"
    },
    {
        "domain": "http://auburn.craigslist.org",
        "city": "auburn",
        "state": "Alabama",
        "date": "Aug 15",
        "title": "1972 Blue Volkswagon",
        "location": " (Boaz)",
        "picture": " pic",
        "map": ""
    },
    {
        "domain": "http://auburn.craigslist.org",
        "city": "auburn",
        "state": "Alabama",
        "date": "Aug 15",
        "title": "1962 slammed beetle (this isnt your grandfather's jalopy)",
        "location": " (Paulding)",
        "picture": " pic",
        "map": ""
    },
    {
        "domain": "http://auburn.craigslist.org",
        "city": "auburn",
        "state": "Alabama",
        "date": "Aug 13",
        "title": "1974 VW Super beetle",
        "location": " (Temple GA)",
        "picture": " pic ",
        "map": "map"
    },
    {
        "domain": "http://auburn.craigslist.org",
        "city": "auburn",
        "state": "Alabama",
        "date": "Aug 13",
        "title": "1959 Mercedes Benz 180 Ponton",
        "location": " (Dahlonega)",
        "picture": " pic",
        "map": ""
    },
    {
        "domain": "http://auburn.craigslist.org",
        "city": "auburn",
        "state": "Alabama",
        "date": "Aug 11",
        "title": "68 Volkswagen Beetle obo",
        "location": " (kennesaw)",
        "picture": " pic",
        "map": ""
    },
    {
        "domain": "http://auburn.craigslist.org",
        "city": "auburn",
        "state": "Alabama",
        "date": "Aug 11",
        "title": "1973 VW Beetle",
        "location": " (roebuck)",
        "picture": " pic",
        "map": ""
    },
    {
        "domain": "http://auburn.craigslist.org",
        "city": "auburn",
        "state": "Alabama",
        "date": "Aug 11",
        "title": "1974 VW super beetle autostick fs/ft",
        "location": " (Canton)",
        "picture": " pic ",
        "map": "map"
    },
    {
        "domain": "http://auburn.craigslist.org",
        "city": "auburn",
        "state": "Alabama",
        "date": "Aug 10",
        "title": "1968 vw beetle cheap",
        "location": "",
        "picture": " pic",
        "map": ""
    },
    {
        "domain": "http://auburn.craigslist.org",
        "city": "auburn",
        "state": "Alabama",
        "date": "Aug  8",
        "title": "74 volkswagen beetle",
        "location": " (Griffin)",
        "picture": " pic",
        "map": ""
    },
    {
        "domain": "http://auburn.craigslist.org",
        "city": "auburn",
        "state": "Alabama",
        "date": "Aug  8",
        "title": "VW Classic 1971",
        "location": " (Marianna, FL)",
        "picture": " pic",
        "map": ""
    },
    {
        "domain": "http://auburn.craigslist.org",
        "city": "auburn",
        "state": "Alabama",
        "date": "Aug  7",
        "title": "1972 Super Beetle",
        "location": " (Ellijay)",
        "picture": " pic",
        "map": ""
    },
    {
        "domain": "http://auburn.craigslist.org",
        "city": "auburn",
        "state": "Alabama",
        "date": "Aug  7",
        "title": "1973 Super Beetle VW",
        "location": " (Peachtree City)",
        "picture": " ",
        "map": "map"
    },
    {
        "domain": "http://auburn.craigslist.org",
        "city": "auburn",
        "state": "Alabama",
        "date": "Aug  4",
        "title": "73 vw super beetle",
        "location": " (dothan)",
        "picture": " ",
        "map": "map"
    },
    {
        "domain": "http://auburn.craigslist.org",
        "city": "auburn",
        "state": "Alabama",
        "date": "Aug  4",
        "title": "1971 volkswagen super beetle vw",
        "location": " (Canton )",
        "picture": " pic",
        "map": ""
    },
    {
        "domain": "http://auburn.craigslist.org",
        "city": "auburn",
        "state": "Alabama",
        "date": "Aug  2",
        "title": "'71 VW Beetle ",
        "location": " (Hayden, Al. )",
        "picture": " pic ",
        "map": "map"
    },
    {
        "domain": "http://auburn.craigslist.org",
        "city": "auburn",
        "state": "Alabama",
        "date": "Jul 31",
        "title": "1972 VW Beetle/sale or trade",
        "location": " (Anniston, Al)",
        "picture": " pic",
        "map": ""
    },
    {
        "domain": "http://auburn.craigslist.org",
        "city": "auburn",
        "state": "Alabama",
        "date": "Jul 30",
        "title": "1972 VW Super Beetle ",
        "location": " (Canton )",
        "picture": " pic ",
        "map": "map"
    },
    {
        "domain": "http://auburn.craigslist.org",
        "city": "auburn",
        "state": "Alabama",
        "date": "Jul 30",
        "title": "1974 Volkswagen superbeetle/sun bug edition",
        "location": " (atlanta ga)",
        "picture": " ",
        "map": "map"
    },
    {
        "domain": "http://auburn.craigslist.org",
        "city": "auburn",
        "state": "Alabama",
        "date": "Jul 30",
        "title": "1971 Volkswagen Beetle",
        "location": " (canton)",
        "picture": " ",
        "map": ""
    },
    {
        "domain": "http://auburn.craigslist.org",
        "city": "auburn",
        "state": "Alabama",
        "date": "Jul 29",
        "title": "1951 flatbed Chevy",
        "location": " (gainesville)",
        "picture": " pic",
        "map": ""
    },
    {
        "domain": "http://dothan.craigslist.org",
        "city": "dothan, AL",
        "state": "Alabama",
        "date": "Aug  8",
        "title": "VW Classic 1971",
        "location": " (Marianna, FL)",
        "picture": " pic",
        "map": ""
    },
    {
        "domain": "http://dothan.craigslist.org",
        "city": "dothan, AL",
        "state": "Alabama",
        "date": "Aug  4",
        "title": "73 vw super beetle",
        "location": " (dothan)",
        "picture": " ",
        "map": "map"
    },
    {
        "domain": "http://dothan.craigslist.org",
        "city": "dothan, AL",
        "state": "Alabama",
        "date": "Sep 10",
        "title": "1978 Volkswagen Super Beetle Convertible",
        "location": " (Greensboro Fl. (Quincy))",
        "picture": " pic",
        "map": ""
    },
    {
        "domain": "http://dothan.craigslist.org",
        "city": "dothan, AL",
        "state": "Alabama",
        "date": "Sep 10",
        "title": "68' Beetle ",
        "location": " (Tyndall AFB)",
        "picture": " pic ",
        "map": "map"
    },
    {
        "domain": "http://dothan.craigslist.org",
        "city": "dothan, AL",
        "state": "Alabama",
        "date": "Sep  9",
        "title": "1974 VW Super Beetle",
        "location": " (Clanton)",
        "picture": " pic",
        "map": ""
    },
    {
        "domain": "http://dothan.craigslist.org",
        "city": "dothan, AL",
        "state": "Alabama",
        "date": "Sep  6",
        "title": "1974 VW Beetle",
        "location": " (Bonifay, Fl)",
        "picture": " pic",
        "map": ""
    },
    {
        "domain": "http://dothan.craigslist.org",
        "city": "dothan, AL",
        "state": "Alabama",
        "date": "Sep  6",
        "title": "1973 super beetle",
        "location": " (Crawfordville)",
        "picture": " pic",
        "map": ""
    },
    {
        "domain": "http://dothan.craigslist.org",
        "city": "dothan, AL",
        "state": "Alabama",
        "date": "Sep  6",
        "title": "1973 super beetle",
        "location": " (Crawfordville)",
        "picture": " pic",
        "map": ""
    },
    {
        "domain": "http://dothan.craigslist.org",
        "city": "dothan, AL",
        "state": "Alabama",
        "date": "Sep  6",
        "title": "1973 super beetle",
        "location": " (Crawfordville)",
        "picture": " pic",
        "map": ""
    },
    {
        "domain": "http://dothan.craigslist.org",
        "city": "dothan, AL",
        "state": "Alabama",
        "date": "Sep  4",
        "title": "VW SUPER BEETLE  PROJECT",
        "location": " (BLEECKER,AL)",
        "picture": " pic ",
        "map": "map"
    },
    {
        "domain": "http://dothan.craigslist.org",
        "city": "dothan, AL",
        "state": "Alabama",
        "date": "Sep  4",
        "title": "1964 VW Beetle Bug",
        "location": " (Panama City Beach)",
        "picture": " pic",
        "map": ""
    },
    {
        "domain": "http://dothan.craigslist.org",
        "city": "dothan, AL",
        "state": "Alabama",
        "date": "Sep  4",
        "title": "1970 VW Dune Buggy Sand Rail",
        "location": " (Niceville)",
        "picture": " pic",
        "map": ""
    },
    {
        "domain": "http://dothan.craigslist.org",
        "city": "dothan, AL",
        "state": "Alabama",
        "date": "Sep  1",
        "title": "1969 volkswagon superbeetle w pics",
        "location": " (tallahassee)",
        "picture": " pic ",
        "map": "map"
    },
    {
        "domain": "http://dothan.craigslist.org",
        "city": "dothan, AL",
        "state": "Alabama",
        "date": "Aug 29",
        "title": "Vw sand rail for sale or trade",
        "location": " (Pensacola)",
        "picture": " ",
        "map": "map"
    },
    {
        "domain": "http://dothan.craigslist.org",
        "city": "dothan, AL",
        "state": "Alabama",
        "date": "Aug 28",
        "title": "63 Volkswagen Beetle Bug  Baja lifted",
        "location": " (Columbus Georgia)",
        "picture": " pic",
        "map": ""
    },
    {
        "domain": "http://dothan.craigslist.org",
        "city": "dothan, AL",
        "state": "Alabama",
        "date": "Aug 27",
        "title": "1972 VW Super Beetle",
        "location": " (Wetumpka)",
        "picture": " pic",
        "map": ""
    },
    {
        "domain": "http://dothan.craigslist.org",
        "city": "dothan, AL",
        "state": "Alabama",
        "date": "Aug 26",
        "title": "1974 vw super beetle",
        "location": " (Perry, fl)",
        "picture": " pic",
        "map": ""
    },
    {
        "domain": "http://dothan.craigslist.org",
        "city": "dothan, AL",
        "state": "Alabama",
        "date": "Aug 25",
        "title": "1979 Convertible VW beetle",
        "location": " (crawfordville)",
        "picture": " pic",
        "map": ""
    },
    {
        "domain": "http://dothan.craigslist.org",
        "city": "dothan, AL",
        "state": "Alabama",
        "date": "Aug 20",
        "title": "1971 VW Super Beetle Convertible",
        "location": " (Lynn Haven)",
        "picture": " pic ",
        "map": "map"
    },
    {
        "domain": "http://dothan.craigslist.org",
        "city": "dothan, AL",
        "state": "Alabama",
        "date": "Aug 18",
        "title": "1968 VW Beetle",
        "location": " (chipley)",
        "picture": " pic ",
        "map": "map"
    },
    {
        "domain": "http://dothan.craigslist.org",
        "city": "dothan, AL",
        "state": "Alabama",
        "date": "Aug 16",
        "title": "vw beetle",
        "location": " (Chipley)",
        "picture": " pic",
        "map": ""
    },
    {
        "domain": "http://dothan.craigslist.org",
        "city": "dothan, AL",
        "state": "Alabama",
        "date": "Aug 11",
        "title": " Super Beetle Volwagen",
        "location": " (Wray)",
        "picture": " pic",
        "map": ""
    },
    {
        "domain": "http://dothan.craigslist.org",
        "city": "dothan, AL",
        "state": "Alabama",
        "date": "Aug  8",
        "title": "67 F100 running project",
        "location": " (Fitzgerald)",
        "picture": " pic ",
        "map": "map"
    },
    {
        "domain": "http://dothan.craigslist.org",
        "city": "dothan, AL",
        "state": "Alabama",
        "date": "Aug  8",
        "title": "VW Classic 1971",
        "location": " (Marianna, FL)",
        "picture": " pic ",
        "map": "map"
    },
    {
        "domain": "http://dothan.craigslist.org",
        "city": "dothan, AL",
        "state": "Alabama",
        "date": "Aug  8",
        "title": "VW Classic Beetle 1971",
        "location": " (Marianna, FL)",
        "picture": " pic ",
        "map": "map"
    },
    {
        "domain": "http://dothan.craigslist.org",
        "city": "dothan, AL",
        "state": "Alabama",
        "date": "Aug  7",
        "title": "1968 VW Beetle",
        "location": " (Fort walton beach)",
        "picture": " pic",
        "map": ""
    },
    {
        "domain": "http://dothan.craigslist.org",
        "city": "dothan, AL",
        "state": "Alabama",
        "date": "Jul 30",
        "title": "**1964 Classic VW Beetle**",
        "location": " (Fort Walton Beach)",
        "picture": " pic ",
        "map": "map"
    },
    {
        "domain": "http://dothan.craigslist.org",
        "city": "dothan, AL",
        "state": "Alabama",
        "date": "Jul 30",
        "title": "**1964 Classic VW Beetle**",
        "location": " (Fort Walton Beach)",
        "picture": " pic ",
        "map": "map"
    },
    {
        "domain": "http://dothan.craigslist.org",
        "city": "dothan, AL",
        "state": "Alabama",
        "date": "Jul 30",
        "title": "74 Volkswagen beetle",
        "location": " (Tallahassee)",
        "picture": " pic ",
        "map": "map"
    }
]